[
    {
        "id": "54303615598",
        "title": "Warning Cliff Area",
        "latitude": 39.54008,
        "longitude": -82.57572,
        "url": "https://live.staticflickr.com/65535/54303615598_0460043b5f.jpg",
        "license": "3",
        "owner_id": "39684088@N00",
        "owner_name": "Unknown"
    },
    {
        "id": "54303458295",
        "title": "Path to Shared Courtyard",
        "latitude": 62.575475,
        "longitude": 11.389419,
        "url": "https://live.staticflickr.com/65535/54303458295_afe9a5cfbb.jpg",
        "license": "5",
        "owner_id": "89165847@N00",
        "owner_name": "Unknown"
    },
    {
        "id": "54302099087",
        "title": "West End Tram Stop 04",
        "latitude": 55.948647,
        "longitude": -3.211644,
        "url": "https://live.staticflickr.com/65535/54302099087_b4f4ba5d6e.jpg",
        "license": "2",
        "owner_id": "7512717@N06",
        "owner_name": "Unknown"
    },
    {
        "id": "54302454906",
        "title": "KMB Alexander Dennis Enviro500 EV 12m (ADL bodywork)",
        "latitude": 22.324055,
        "longitude": 114.168376,
        "url": "https://live.staticflickr.com/65535/54302454906_48e0f9280c.jpg",
        "license": "3",
        "owner_id": "134186440@N02",
        "owner_name": "Unknown"
    },
    {
        "id": "54302365336",
        "title": "20250112_Birdbuddy",
        "latitude": 48.248483,
        "longitude": 16.442456,
        "url": "https://live.staticflickr.com/65535/54302365336_fb8d181222.jpg",
        "license": "4",
        "owner_id": "25507134@N00",
        "owner_name": "Unknown"
    },
    {
        "id": "54302094186",
        "title": "Lost in Time",
        "latitude": 53.959841,
        "longitude": -1.118364,
        "url": "https://live.staticflickr.com/65535/54302094186_fc9de1c91b.jpg",
        "license": "2",
        "owner_id": "82887550@N00",
        "owner_name": "Unknown"
    },
    {
        "id": "54302493020",
        "title": "Traditional male costume 022",
        "latitude": 47.511516,
        "longitude": 19.080758,
        "url": "https://live.staticflickr.com/65535/54302493020_22884e4e94.jpg",
        "license": "1",
        "owner_id": "101240316@N03",
        "owner_name": "Unknown"
    },
    {
        "id": "54302017316",
        "title": "IMG_9864",
        "latitude": 25.044894,
        "longitude": 121.504469,
        "url": "https://live.staticflickr.com/65535/54302017316_39b05c646b.jpg",
        "license": "1",
        "owner_id": "9180755@N03",
        "owner_name": "Unknown"
    },
    {
        "id": "54302109703",
        "title": "Death Road",
        "latitude": -16.286157,
        "longitude": -67.805986,
        "url": "https://live.staticflickr.com/65535/54302109703_10f5074589.jpg",
        "license": "1",
        "owner_id": "64017146@N03",
        "owner_name": "Unknown"
    }
]
